{
"type": "FeatureCollection",
"name": "settlement_point_all",
"crs": { "type": "name", "properties": { "name": "urn:ogc:def:crs:OGC:1.3:CRS84" } },
"features": [
{ "type": "Feature", "properties": { "settlement": "Settlement Enclave in Hebron", "name_he": "אברהם אבינו", "name_en": "Avraham Avinu", "name_ar": "سيدنا ابراهيم", "date_estab": 1981.0, "hectare": 2, "object_id": 0 }, "geometry": { "type": "Point", "coordinates": [ 35.10769, 31.52382 ] } },
{ "type": "Feature", "properties": { "settlement": "Settlement Enclave in Hebron", "name_he": "בית המריבה", "name_en": "Beit HaMeriva", "name_ar": "بيت همريفا", "date_estab": 2014.0, "hectare": 0, "object_id": 1 }, "geometry": { "type": "Point", "coordinates": [ 35.11327, 31.52679 ] } },
{ "type": "Feature", "properties": { "settlement": "Settlement Enclave in Hebron", "name_he": "בית הדסה", "name_en": "Beit Hadassah", "name_ar": "بيت هداسا", "date_estab": 1979.0, "hectare": 1, "object_id": 2 }, "geometry": { "type": "Point", "coordinates": [ 35.1046, 31.52593 ] } },
{ "type": "Feature", "properties": { "settlement": "Settlement Enclave in Hebron", "name_he": "בית רומנו", "name_en": "Beit Romano", "name_ar": "بيت رمانة", "date_estab": 1982.0, "hectare": 1, "object_id": 3 }, "geometry": { "type": "Point", "coordinates": [ 35.10562, 31.52507 ] } },
{ "type": "Feature", "properties": { "settlement": "Settlement Enclave in Hebron", "name_he": "תל רומיידה", "name_en": "Tel Rumeidah", "name_ar": "تل رميدة", "date_estab": 1983.0, "hectare": 1, "object_id": 4 }, "geometry": { "type": "Point", "coordinates": [ 35.10225, 31.52505 ] } },
{ "type": "Feature", "properties": { "settlement": "Settlement Enclave in Hebron", "name_he": "בית הקברות היהודי", "name_en": "The Jewish Cemetery", "name_ar": null, "date_estab": 1975.0, "hectare": 2, "object_id": 5 }, "geometry": { "type": "Point", "coordinates": [ 35.09941, 31.52518 ] } },
{ "type": "Feature", "properties": { "settlement": "Settlement Enclave in Hebron", "name_he": "מערת המכפלה \/ מסגד אברהם", "name_en": "The Tomb of the Patriarchs \/ Ibrahimi Mosque", "name_ar": null, "date_estab": 1994.0, "hectare": 1, "object_id": 6 }, "geometry": { "type": "Point", "coordinates": [ 35.11073, 31.52445 ] } },
{ "type": "Feature", "properties": { "settlement": "Settlement in Gaza", "name_he": "בדולח", "name_en": "Bedolah", "name_ar": "بدولح", "date_estab": 1986.0, "hectare": 9, "object_id": 7 }, "geometry": { "type": "Point", "coordinates": [ 34.25503, 31.32981 ] } },
{ "type": "Feature", "properties": { "settlement": "Settlement in Gaza", "name_he": "בני עצמון", "name_en": "Bene Azmon", "name_ar": "بني عتسمون", "date_estab": 1979.0, "hectare": 16, "object_id": 8 }, "geometry": { "type": "Point", "coordinates": [ 34.25158, 31.32181 ] } },
{ "type": "Feature", "properties": { "settlement": "Settlement in Gaza", "name_he": "דוגית", "name_en": "Dugit", "name_ar": "دوجيت", "date_estab": 1990.0, "hectare": 8, "object_id": 9 }, "geometry": { "type": "Point", "coordinates": [ 34.48953, 31.57385 ] } },
{ "type": "Feature", "properties": { "settlement": "Settlement in Gaza", "name_he": "אלי סיני", "name_en": "Ele Sinay", "name_ar": "ايلي سيناي", "date_estab": 1982.0, "hectare": 17, "object_id": 10 }, "geometry": { "type": "Point", "coordinates": [ 34.50315, 31.58382 ] } },
{ "type": "Feature", "properties": { "settlement": "Settlement in Gaza", "name_he": "גדיד", "name_en": "Gadid", "name_ar": "جديد", "date_estab": 1982.0, "hectare": 19, "object_id": 11 }, "geometry": { "type": "Point", "coordinates": [ 34.27589, 31.34393 ] } },
{ "type": "Feature", "properties": { "settlement": "Settlement in Gaza", "name_he": "גן אור", "name_en": "Gan Or", "name_ar": "جان اور", "date_estab": 1983.0, "hectare": 16, "object_id": 12 }, "geometry": { "type": "Point", "coordinates": [ 34.25841, 31.33691 ] } },
{ "type": "Feature", "properties": { "settlement": "Settlement in Gaza", "name_he": "גני טל", "name_en": "Ganne Tal", "name_ar": "جاني طال", "date_estab": 1979.0, "hectare": 26, "object_id": 13 }, "geometry": { "type": "Point", "coordinates": [ 34.30142, 31.37366 ] } },
{ "type": "Feature", "properties": { "settlement": "Settlement in Gaza", "name_he": "כפר דרום", "name_en": "Kefar Darom", "name_ar": "كفار داروم", "date_estab": 1970.0, "hectare": 13, "object_id": 14 }, "geometry": { "type": "Point", "coordinates": [ 34.35618, 31.40269 ] } },
{ "type": "Feature", "properties": { "settlement": "Settlement in Gaza", "name_he": "מורג", "name_en": "Morag", "name_ar": "موراج", "date_estab": 1972.0, "hectare": 9, "object_id": 15 }, "geometry": { "type": "Point", "coordinates": [ 34.28785, 31.30886 ] } },
{ "type": "Feature", "properties": { "settlement": "Settlement in Gaza", "name_he": "נווה דקלים", "name_en": "Newe Deqalim", "name_ar": "نفي دكاليم", "date_estab": 1980.0, "hectare": 37, "object_id": 16 }, "geometry": { "type": "Point", "coordinates": [ 34.27636, 31.35162 ] } },
{ "type": "Feature", "properties": { "settlement": "Settlement in Gaza", "name_he": "נצרים", "name_en": "Nezarim", "name_ar": "نتساريم", "date_estab": 1972.0, "hectare": 8, "object_id": 17 }, "geometry": { "type": "Point", "coordinates": [ 34.415, 31.47892 ] } },
{ "type": "Feature", "properties": { "settlement": "Settlement in Gaza", "name_he": "נצר חזני", "name_en": "Nezer Hazzani", "name_ar": "نيتسر حزاني", "date_estab": 1973.0, "hectare": 20, "object_id": 18 }, "geometry": { "type": "Point", "coordinates": [ 34.32191, 31.38086 ] } },
{ "type": "Feature", "properties": { "settlement": "Settlement in Gaza", "name_he": "ניסנית", "name_en": "Nisanit", "name_ar": "نيسانيت", "date_estab": 1982.0, "hectare": 39, "object_id": 19 }, "geometry": { "type": "Point", "coordinates": [ 34.53202, 31.56232 ] } },
{ "type": "Feature", "properties": { "settlement": "Settlement in Gaza", "name_he": "פאת שדה", "name_en": "Pe'at Sade", "name_ar": "بيآت ساديه", "date_estab": 1993.0, "hectare": 26, "object_id": 20 }, "geometry": { "type": "Point", "coordinates": [ 34.24358, 31.32925 ] } },
{ "type": "Feature", "properties": { "settlement": "Settlement in Gaza", "name_he": "קטיף", "name_en": "Qatif", "name_ar": "كطيف", "date_estab": 1978.0, "hectare": 16, "object_id": 21 }, "geometry": { "type": "Point", "coordinates": [ 34.3115, 31.37583 ] } },
{ "type": "Feature", "properties": { "settlement": "Settlement in Gaza", "name_he": "רפיח ים", "name_en": "Rafiah Yam", "name_ar": "رفياح يام", "date_estab": 1984.0, "hectare": 15, "object_id": 22 }, "geometry": { "type": "Point", "coordinates": [ 34.23016, 31.31552 ] } },
{ "type": "Feature", "properties": { "settlement": "Settlement in East Jerusalem", "name_he": "הגבעה הצרפתית (גבעת שפירא)", "name_en": "French Hill (Giv'at Shapira)", "name_ar": "التلة الفرنسية", "date_estab": 1970.0, "hectare": 57, "object_id": 23 }, "geometry": { "type": "Point", "coordinates": [ 35.23862, 31.80362 ] } },
{ "type": "Feature", "properties": { "settlement": "Settlement in East Jerusalem", "name_he": "גילה", "name_en": "Gilo", "name_ar": "جيلو", "date_estab": 1971.0, "hectare": 241, "object_id": 24 }, "geometry": { "type": "Point", "coordinates": [ 35.18978, 31.73362 ] } },
{ "type": "Feature", "properties": { "settlement": "Settlement in East Jerusalem", "name_he": "גבעת המטוס", "name_en": "Giv'at Hamatos", "name_ar": "جفعات همطوس", "date_estab": 1991.0, "hectare": 13, "object_id": 25 }, "geometry": { "type": "Point", "coordinates": [ 35.2079, 31.73907 ] } },
{ "type": "Feature", "properties": { "settlement": "Settlement in East Jerusalem", "name_he": "הר חומה", "name_en": "Har Homa", "name_ar": "هار حوما (جبل ابو غنيم)", "date_estab": 1991.0, "hectare": 125, "object_id": 26 }, "geometry": { "type": "Point", "coordinates": [ 35.22285, 31.72386 ] } },
{ "type": "Feature", "properties": { "settlement": "Settlement in East Jerusalem", "name_he": "הרובע היהודי", "name_en": "Jewish Quarter", "name_ar": "حارة اليهود", "date_estab": 1968.0, "hectare": 14, "object_id": 27 }, "geometry": { "type": "Point", "coordinates": [ 35.2324, 31.77536 ] } },
{ "type": "Feature", "properties": { "settlement": "Settlement in East Jerusalem", "name_he": "מעלות דפנה", "name_en": "Ma'alot Dafna", "name_ar": " معالوت دافناه", "date_estab": 1970.0, "hectare": 28, "object_id": 28 }, "geometry": { "type": "Point", "coordinates": [ 35.22707, 31.79722 ] } },
{ "type": "Feature", "properties": { "settlement": "Settlement in East Jerusalem", "name_he": "נווה יעקב", "name_en": "Neve Ya'akov", "name_ar": "نفيه يعقوب", "date_estab": 1972.0, "hectare": 126, "object_id": 29 }, "geometry": { "type": "Point", "coordinates": [ 35.24189, 31.83944 ] } },
{ "type": "Feature", "properties": { "settlement": "Settlement in East Jerusalem", "name_he": "פסגת זאב", "name_en": "Pisgat Ze'ev", "name_ar": "بسجات زئب", "date_estab": 1985.0, "hectare": 260, "object_id": 30 }, "geometry": { "type": "Point", "coordinates": [ 35.24571, 31.82312 ] } },
{ "type": "Feature", "properties": { "settlement": "Settlement in East Jerusalem", "name_he": "רמת שלמה", "name_en": "Ramat Shlomo", "name_ar": "راموت شلومو", "date_estab": 1994.0, "hectare": 76, "object_id": 31 }, "geometry": { "type": "Point", "coordinates": [ 35.21872, 31.81096 ] } },
{ "type": "Feature", "properties": { "settlement": "Settlement in East Jerusalem", "name_he": "רמות אלון", "name_en": "Ramot Alon", "name_ar": "راموت آلون", "date_estab": 1970.0, "hectare": 259, "object_id": 32 }, "geometry": { "type": "Point", "coordinates": [ 35.19568, 31.81737 ] } },
{ "type": "Feature", "properties": { "settlement": "Settlement in East Jerusalem", "name_he": "תלפיות מזרח", "name_en": "Talpiot (East)", "name_ar": "تلبيوت (شرق)", "date_estab": 1973.0, "hectare": 131, "object_id": 33 }, "geometry": { "type": "Point", "coordinates": [ 35.23291, 31.74928 ] } },
{ "type": "Feature", "properties": { "settlement": "Settlement", "name_he": "אדם (גבע בנימין)", "name_en": "Adam (Geva Binyamin)", "name_ar": "أدم (جبع بنيامين)", "date_estab": 1984.0, "hectare": 46, "object_id": 120 }, "geometry": { "type": "Point", "coordinates": [ 35.27467, 31.84969 ] } },
{ "type": "Feature", "properties": { "settlement": "Settlement", "name_he": "אדורה", "name_en": "Adora", "name_ar": "ادورا", "date_estab": 1984.0, "hectare": 10, "object_id": 121 }, "geometry": { "type": "Point", "coordinates": [ 35.01724, 31.55227 ] } },
{ "type": "Feature", "properties": { "settlement": "Settlement", "name_he": "עלי זהב", "name_en": "Alei Zahav", "name_ar": "ايلي زهاف", "date_estab": 1982.0, "hectare": 24, "object_id": 122 }, "geometry": { "type": "Point", "coordinates": [ 35.06618, 32.0713 ] } },
{ "type": "Feature", "properties": { "settlement": "Settlement", "name_he": "אלפי מנשה", "name_en": "Alfei Menashe", "name_ar": "الفي مناشيه", "date_estab": 1993.0, "hectare": 128, "object_id": 123 }, "geometry": { "type": "Point", "coordinates": [ 35.0131, 32.17336 ] } },
{ "type": "Feature", "properties": { "settlement": "Settlement", "name_he": "אלמוג", "name_en": "Almog", "name_ar": "الموج", "date_estab": 1977.0, "hectare": 10, "object_id": 124 }, "geometry": { "type": "Point", "coordinates": [ 35.46112, 31.78989 ] } },
{ "type": "Feature", "properties": { "settlement": "Settlement", "name_he": "עלמון", "name_en": "Almon", "name_ar": "المون", "date_estab": 1982.0, "hectare": 22, "object_id": 125 }, "geometry": { "type": "Point", "coordinates": [ 35.29451, 31.82987 ] } },
{ "type": "Feature", "properties": { "settlement": "Settlement", "name_he": "אלון שבות", "name_en": "Alon Shvut", "name_ar": "آلون شيفوت", "date_estab": 1970.0, "hectare": 61, "object_id": 126 }, "geometry": { "type": "Point", "coordinates": [ 35.17597, 31.69505 ] } },
{ "type": "Feature", "properties": { "settlement": "Settlement", "name_he": "ארגמן", "name_en": "Argaman", "name_ar": "ارجمان", "date_estab": 1968.0, "hectare": 14, "object_id": 127 }, "geometry": { "type": "Point", "coordinates": [ 35.52284, 32.17238 ] } },
{ "type": "Feature", "properties": { "settlement": "Settlement", "name_he": "אריאל", "name_en": "Ari'el", "name_ar": "اريئيل", "date_estab": 1978.0, "hectare": 244, "object_id": 128 }, "geometry": { "type": "Point", "coordinates": [ 35.18784, 32.10488 ] } },
{ "type": "Feature", "properties": { "settlement": "Settlement", "name_he": "אספר", "name_en": "Asefar", "name_ar": "اسفار", "date_estab": 1983.0, "hectare": 14, "object_id": 129 }, "geometry": { "type": "Point", "coordinates": [ 35.18967, 31.58701 ] } },
{ "type": "Feature", "properties": { "settlement": "Settlement", "name_he": "עטרת", "name_en": "Ateret", "name_ar": "عاطرت", "date_estab": 1981.0, "hectare": 16, "object_id": 130 }, "geometry": { "type": "Point", "coordinates": [ 35.17708, 32.00059 ] } },
{ "type": "Feature", "properties": { "settlement": "Settlement", "name_he": "אבנת", "name_en": "Avenat", "name_ar": "افينات", "date_estab": 1983.0, "hectare": 4, "object_id": 131 }, "geometry": { "type": "Point", "coordinates": [ 35.43676, 31.6792 ] } },
{ "type": "Feature", "properties": { "settlement": "Settlement", "name_he": "אבני חפץ", "name_en": "Avne Hefetz", "name_ar": "أفني حيفز", "date_estab": 1990.0, "hectare": 29, "object_id": 132 }, "geometry": { "type": "Point", "coordinates": [ 35.0742, 32.28636 ] } },
{ "type": "Feature", "properties": { "settlement": "Settlement", "name_he": "ברקן", "name_en": "Barkan", "name_ar": "بركان", "date_estab": 1981.0, "hectare": 110, "object_id": 133 }, "geometry": { "type": "Point", "coordinates": [ 35.11341, 32.10671 ] } },
{ "type": "Feature", "properties": { "settlement": "Settlement", "name_he": "בת עין", "name_en": "Bat Ayin", "name_ar": "بات عاين", "date_estab": 1989.0, "hectare": 41, "object_id": 134 }, "geometry": { "type": "Point", "coordinates": [ 35.10174, 31.65838 ] } },
{ "type": "Feature", "properties": { "settlement": "Settlement", "name_he": "בית אל", "name_en": "Beit El", "name_ar": "بيت ايل", "date_estab": 1977.0, "hectare": 78, "object_id": 135 }, "geometry": { "type": "Point", "coordinates": [ 35.22326, 31.94209 ] } },
{ "type": "Feature", "properties": { "settlement": "Settlement", "name_he": "בית הערבה", "name_en": "Beit Ha'arava", "name_ar": "بين هعرافا", "date_estab": 1980.0, "hectare": 6, "object_id": 136 }, "geometry": { "type": "Point", "coordinates": [ 35.47766, 31.80825 ] } },
{ "type": "Feature", "properties": { "settlement": "Settlement", "name_he": "בית חגי", "name_en": "Beit Hagai", "name_ar": "بيت حجاي", "date_estab": 1984.0, "hectare": 16, "object_id": 137 }, "geometry": { "type": "Point", "coordinates": [ 35.07995, 31.49304 ] } },
{ "type": "Feature", "properties": { "settlement": "Settlement", "name_he": "ביתר עילית", "name_en": "Beitar Illit", "name_ar": "بيتار عيليت", "date_estab": 1985.0, "hectare": 196, "object_id": 138 }, "geometry": { "type": "Point", "coordinates": [ 35.11389, 31.69778 ] } },
{ "type": "Feature", "properties": { "settlement": "Settlement", "name_he": "בקעות", "name_en": "Beka'ot", "name_ar": "بقاعوت", "date_estab": 1972.0, "hectare": 19, "object_id": 139 }, "geometry": { "type": "Point", "coordinates": [ 35.45538, 32.24296 ] } },
{ "type": "Feature", "properties": { "settlement": "Settlement", "name_he": "בית אריה", "name_en": "Bet Arye", "name_ar": "بيت اريه", "date_estab": 1981.0, "hectare": 78, "object_id": 140 }, "geometry": { "type": "Point", "coordinates": [ 35.05139, 32.03649 ] } },
{ "type": "Feature", "properties": { "settlement": "Settlement", "name_he": "בית חורון", "name_en": "Bet Horon", "name_ar": "بين حورون", "date_estab": 1977.0, "hectare": 17, "object_id": 141 }, "geometry": { "type": "Point", "coordinates": [ 35.12694, 31.87801 ] } },
{ "type": "Feature", "properties": { "settlement": "Settlement", "name_he": "ברוכין", "name_en": "Bruchin", "name_ar": "بروقين", "date_estab": 1999.0, "hectare": 8, "object_id": 142 }, "geometry": { "type": "Point", "coordinates": [ 35.08942, 32.08159 ] } },
{ "type": "Feature", "properties": { "settlement": "Settlement", "name_he": "כרמי צור", "name_en": "Carmei Tzur", "name_ar": "كرمي تسور", "date_estab": 1984.0, "hectare": 14, "object_id": 143 }, "geometry": { "type": "Point", "coordinates": [ 35.10062, 31.609 ] } },
{ "type": "Feature", "properties": { "settlement": "Settlement", "name_he": "כרמל", "name_en": "Carmel", "name_ar": "الكرمل", "date_estab": 1981.0, "hectare": 20, "object_id": 144 }, "geometry": { "type": "Point", "coordinates": [ 35.18509, 31.43235 ] } },
{ "type": "Feature", "properties": { "settlement": "Settlement", "name_he": "דולב", "name_en": "Dolev", "name_ar": "دوليف", "date_estab": 1983.0, "hectare": 30, "object_id": 145 }, "geometry": { "type": "Point", "coordinates": [ 35.13375, 31.92646 ] } },
{ "type": "Feature", "properties": { "settlement": "Settlement", "name_he": "אפרת", "name_en": "Efrat", "name_ar": "افرات", "date_estab": 1980.0, "hectare": 108, "object_id": 146 }, "geometry": { "type": "Point", "coordinates": [ 35.15567, 31.66114 ] } },
{ "type": "Feature", "properties": { "settlement": "Settlement", "name_he": "ענב", "name_en": "Einav", "name_ar": "عيناف", "date_estab": 1981.0, "hectare": 21, "object_id": 147 }, "geometry": { "type": "Point", "coordinates": [ 35.12649, 32.28496 ] } },
{ "type": "Feature", "properties": { "settlement": "Settlement", "name_he": "אלעזר", "name_en": "Elazar", "name_ar": "العزار", "date_estab": 1975.0, "hectare": 24, "object_id": 148 }, "geometry": { "type": "Point", "coordinates": [ 35.14263, 31.66026 ] } },
{ "type": "Feature", "properties": { "settlement": "Settlement", "name_he": "עלי", "name_en": "Eli", "name_ar": "ايلي", "date_estab": 1984.0, "hectare": 73, "object_id": 149 }, "geometry": { "type": "Point", "coordinates": [ 35.26734, 32.07243 ] } },
{ "type": "Feature", "properties": { "settlement": "Settlement", "name_he": "אלקנה", "name_en": "Elkana", "name_ar": "الكانا", "date_estab": 1977.0, "hectare": 90, "object_id": 150 }, "geometry": { "type": "Point", "coordinates": [ 35.035, 32.11195 ] } },
{ "type": "Feature", "properties": { "settlement": "Settlement", "name_he": "אלון מורה", "name_en": "Elon Moreh", "name_ar": "آلون موريه", "date_estab": 1979.0, "hectare": 58, "object_id": 151 }, "geometry": { "type": "Point", "coordinates": [ 35.33421, 32.23352 ] } },
{ "type": "Feature", "properties": { "settlement": "Settlement", "name_he": "אשכולות", "name_en": "Eshkolot", "name_ar": "اشكلوت", "date_estab": 1982.0, "hectare": 9, "object_id": 152 }, "geometry": { "type": "Point", "coordinates": [ 34.90512, 31.39105 ] } },
{ "type": "Feature", "properties": { "settlement": "Settlement", "name_he": "עץ אפרים", "name_en": "Etz Efrayim", "name_ar": "عتس افرايم", "date_estab": 1985.0, "hectare": 17, "object_id": 153 }, "geometry": { "type": "Point", "coordinates": [ 35.04649, 32.11944 ] } },
{ "type": "Feature", "properties": { "settlement": "Settlement", "name_he": "גלגל", "name_en": "Gilgal", "name_ar": "جيلجال", "date_estab": 1970.0, "hectare": 36, "object_id": 154 }, "geometry": { "type": "Point", "coordinates": [ 35.44732, 32.00025 ] } },
{ "type": "Feature", "properties": { "settlement": "Settlement", "name_he": "גיתית", "name_en": "Gittit", "name_ar": "جيتيت", "date_estab": 1973.0, "hectare": 11, "object_id": 155 }, "geometry": { "type": "Point", "coordinates": [ 35.39599, 32.1016 ] } },
{ "type": "Feature", "properties": { "settlement": "Settlement", "name_he": "גבעת זאב", "name_en": "Giv'at Ze'ev", "name_ar": "جفعات زئيف", "date_estab": 1983.0, "hectare": 107, "object_id": 156 }, "geometry": { "type": "Point", "coordinates": [ 35.16834, 31.86139 ] } },
{ "type": "Feature", "properties": { "settlement": "Settlement", "name_he": "גבעון החדשה", "name_en": "Givon Hahadasha", "name_ar": "جيفعون هحدشاه", "date_estab": 1980.0, "hectare": 28, "object_id": 157 }, "geometry": { "type": "Point", "coordinates": [ 35.16276, 31.84861 ] } },
{ "type": "Feature", "properties": { "settlement": "Settlement", "name_he": "חמרה", "name_en": "Hamra", "name_ar": "حمرة", "date_estab": 1971.0, "hectare": 16, "object_id": 158 }, "geometry": { "type": "Point", "coordinates": [ 35.43742, 32.19993 ] } },
{ "type": "Feature", "properties": { "settlement": "Settlement", "name_he": "הר אדר", "name_en": "Har Adar", "name_ar": "هار ادار", "date_estab": 1986.0, "hectare": 81, "object_id": 159 }, "geometry": { "type": "Point", "coordinates": [ 35.12931, 31.82656 ] } },
{ "type": "Feature", "properties": { "settlement": "Settlement", "name_he": "הר ברכה", "name_en": "Har Bracha", "name_ar": "هار برخا", "date_estab": 1983.0, "hectare": 29, "object_id": 160 }, "geometry": { "type": "Point", "coordinates": [ 35.26428, 32.19282 ] } },
{ "type": "Feature", "properties": { "settlement": "Settlement", "name_he": "הר גילה", "name_en": "Har Gilo", "name_ar": "هار جيلو", "date_estab": 1972.0, "hectare": 17, "object_id": 161 }, "geometry": { "type": "Point", "coordinates": [ 35.1705, 31.7226 ] } },
{ "type": "Feature", "properties": { "settlement": "Settlement", "name_he": "חשמונאים", "name_en": "Hasmoneam", "name_ar": "هشمونائيم", "date_estab": 1985.0, "hectare": 76, "object_id": 162 }, "geometry": { "type": "Point", "coordinates": [ 35.02091, 31.93037 ] } },
{ "type": "Feature", "properties": { "settlement": "Settlement", "name_he": "חמדת", "name_en": "Hemdat", "name_ar": "حمدات", "date_estab": 1980.0, "hectare": 9, "object_id": 163 }, "geometry": { "type": "Point", "coordinates": [ 35.52648, 32.25134 ] } },
{ "type": "Feature", "properties": { "settlement": "Settlement", "name_he": "חרמש", "name_en": "Hermesh", "name_ar": "حرميش", "date_estab": 1982.0, "hectare": 14, "object_id": 164 }, "geometry": { "type": "Point", "coordinates": [ 35.11913, 32.42342 ] } },
{ "type": "Feature", "properties": { "settlement": "Settlement", "name_he": "חיננית", "name_en": "Hinnanit", "name_ar": "حينانيت", "date_estab": 1981.0, "hectare": 16, "object_id": 165 }, "geometry": { "type": "Point", "coordinates": [ 35.17266, 32.48053 ] } },
{ "type": "Feature", "properties": { "settlement": "Settlement", "name_he": "עמנואל", "name_en": "Immanuel", "name_ar": "عمانوئيل", "date_estab": 1983.0, "hectare": 9, "object_id": 166 }, "geometry": { "type": "Point", "coordinates": [ 35.10256, 32.17968 ] } },
{ "type": "Feature", "properties": { "settlement": "Settlement", "name_he": "איתמר", "name_en": "Itamar", "name_ar": "ايتمار", "date_estab": 1984.0, "hectare": 35, "object_id": 167 }, "geometry": { "type": "Point", "coordinates": [ 35.31663, 32.16981 ] } },
{ "type": "Feature", "properties": { "settlement": "Settlement", "name_he": "קרני שומרון", "name_en": "Karnei Shomron", "name_ar": "كارني شومرون", "date_estab": 1978.0, "hectare": 120, "object_id": 168 }, "geometry": { "type": "Point", "coordinates": [ 35.0925, 32.17012 ] } },
{ "type": "Feature", "properties": { "settlement": "Settlement", "name_he": "קדומים", "name_en": "Kedumim", "name_ar": "قدوميم", "date_estab": 1977.0, "hectare": 134, "object_id": 169 }, "geometry": { "type": "Point", "coordinates": [ 35.16052, 32.21728 ] } },
{ "type": "Feature", "properties": { "settlement": "Settlement", "name_he": "כפר אדומים", "name_en": "Kfar Adumim", "name_ar": "كفار ادوميم", "date_estab": 1979.0, "hectare": 62, "object_id": 170 }, "geometry": { "type": "Point", "coordinates": [ 35.33404, 31.82406 ] } },
{ "type": "Feature", "properties": { "settlement": "Settlement", "name_he": "כפר עציון", "name_en": "Kfar Etzion", "name_ar": "كفار عتسيون", "date_estab": 1967.0, "hectare": 33, "object_id": 171 }, "geometry": { "type": "Point", "coordinates": [ 35.11554, 31.64938 ] } },
{ "type": "Feature", "properties": { "settlement": "Settlement", "name_he": "כפר האורנים (מנורה)", "name_en": "Kfar Haoranim (Menora)", "name_ar": "كفار هأورانيم (مينورا)", "date_estab": 1998.0, "hectare": 38, "object_id": 172 }, "geometry": { "type": "Point", "coordinates": [ 35.03702, 31.91992 ] } },
{ "type": "Feature", "properties": { "settlement": "Settlement", "name_he": "כפר תפוח", "name_en": "Kfar Tapuah", "name_ar": "كفار تبواح", "date_estab": 1978.0, "hectare": 21, "object_id": 173 }, "geometry": { "type": "Point", "coordinates": [ 35.24819, 32.11804 ] } },
{ "type": "Feature", "properties": { "settlement": "Settlement", "name_he": "קריית ארבע", "name_en": "Kiryat Arba", "name_ar": "كريات اربع", "date_estab": 1972.0, "hectare": 74, "object_id": 174 }, "geometry": { "type": "Point", "coordinates": [ 35.11896, 31.53409 ] } },
{ "type": "Feature", "properties": { "settlement": "Settlement", "name_he": "קריית נטפים", "name_en": "Kiryat Netafim", "name_ar": "كريات ينتافيم", "date_estab": 1983.0, "hectare": 16, "object_id": 175 }, "geometry": { "type": "Point", "coordinates": [ 35.11238, 32.11696 ] } },
{ "type": "Feature", "properties": { "settlement": "Settlement", "name_he": "כוכב השחר", "name_en": "Kochav Hashachar", "name_ar": "كوخاف هشاحر", "date_estab": 1977.0, "hectare": 39, "object_id": 176 }, "geometry": { "type": "Point", "coordinates": [ 35.34853, 31.95962 ] } },
{ "type": "Feature", "properties": { "settlement": "Settlement", "name_he": "כוכב יעקב", "name_en": "Kochav Ya'akov", "name_ar": "كوخاف يعقوب", "date_estab": 1985.0, "hectare": 56, "object_id": 177 }, "geometry": { "type": "Point", "coordinates": [ 35.24289, 31.88035 ] } },
{ "type": "Feature", "properties": { "settlement": "Settlement", "name_he": "מעלה אדומים", "name_en": "Ma'ale Adumim", "name_ar": "معاليه ادوميم", "date_estab": 1975.0, "hectare": 334, "object_id": 178 }, "geometry": { "type": "Point", "coordinates": [ 35.3021, 31.77743 ] } },
{ "type": "Feature", "properties": { "settlement": "Settlement", "name_he": "מעלה עמוס", "name_en": "Ma'ale Amos", "name_ar": "معاليه عاموس", "date_estab": 1981.0, "hectare": 16, "object_id": 179 }, "geometry": { "type": "Point", "coordinates": [ 35.22628, 31.59931 ] } },
{ "type": "Feature", "properties": { "settlement": "Settlement", "name_he": "מעלה אפרים", "name_en": "Ma'ale Efrayim", "name_ar": "معاليه افرايم", "date_estab": 1970.0, "hectare": 54, "object_id": 180 }, "geometry": { "type": "Point", "coordinates": [ 35.40622, 32.0709 ] } },
{ "type": "Feature", "properties": { "settlement": "Settlement", "name_he": "מעלה לבונה", "name_en": "Ma'ale Levona", "name_ar": "معاليه ليفونا", "date_estab": 1983.0, "hectare": 17, "object_id": 181 }, "geometry": { "type": "Point", "coordinates": [ 35.24029, 32.05484 ] } },
{ "type": "Feature", "properties": { "settlement": "Settlement", "name_he": "מעלה מכמש", "name_en": "Ma'ale Mikhmas", "name_ar": "معاليه ميخماس", "date_estab": 1981.0, "hectare": 26, "object_id": 182 }, "geometry": { "type": "Point", "coordinates": [ 35.30685, 31.87934 ] } },
{ "type": "Feature", "properties": { "settlement": "Settlement", "name_he": "מעלה שומרון", "name_en": "Ma'ale Shomeron", "name_ar": "معاليه شومرون", "date_estab": 1980.0, "hectare": 25, "object_id": 183 }, "geometry": { "type": "Point", "coordinates": [ 35.07057, 32.16488 ] } },
{ "type": "Feature", "properties": { "settlement": "Settlement", "name_he": "מעון", "name_en": "Ma'on", "name_ar": "ماعون", "date_estab": 1981.0, "hectare": 22, "object_id": 184 }, "geometry": { "type": "Point", "coordinates": [ 35.16374, 31.41208 ] } },
{ "type": "Feature", "properties": { "settlement": "Settlement", "name_he": "משכיות", "name_en": "Maskiyyot", "name_ar": "مسكيوت", "date_estab": 2002.0, "hectare": 4, "object_id": 185 }, "geometry": { "type": "Point", "coordinates": [ 35.50272, 32.31739 ] } },
{ "type": "Feature", "properties": { "settlement": "Settlement", "name_he": "משואה", "name_en": "Massu'a", "name_ar": "ماسواة", "date_estab": 1970.0, "hectare": 39, "object_id": 186 }, "geometry": { "type": "Point", "coordinates": [ 35.49232, 32.10882 ] } },
{ "type": "Feature", "properties": { "settlement": "Settlement", "name_he": "מכורה", "name_en": "Mechora", "name_ar": "ميخورا", "date_estab": 1973.0, "hectare": 14, "object_id": 187 }, "geometry": { "type": "Point", "coordinates": [ 35.42356, 32.16501 ] } },
{ "type": "Feature", "properties": { "settlement": "Settlement", "name_he": "מחולה", "name_en": "Mehola", "name_ar": "محولة", "date_estab": 1968.0, "hectare": 26, "object_id": 188 }, "geometry": { "type": "Point", "coordinates": [ 35.51551, 32.36542 ] } },
{ "type": "Feature", "properties": { "settlement": "Settlement", "name_he": "מבוא דותן", "name_en": "Mevo Dotan", "name_ar": "مفو دوتان", "date_estab": 1978.0, "hectare": 18, "object_id": 189 }, "geometry": { "type": "Point", "coordinates": [ 35.17457, 32.42055 ] } },
{ "type": "Feature", "properties": { "settlement": "Settlement", "name_he": "מבוא חורון", "name_en": "Mevo Horon", "name_ar": "مفو حورون", "date_estab": 1970.0, "hectare": 55, "object_id": 190 }, "geometry": { "type": "Point", "coordinates": [ 35.03636, 31.84791 ] } },
{ "type": "Feature", "properties": { "settlement": "Settlement", "name_he": "מצדות יהודה", "name_en": "Mezadot Yehuda", "name_ar": "متسودوت يهودا", "date_estab": 1983.0, "hectare": 3, "object_id": 191 }, "geometry": { "type": "Point", "coordinates": [ 35.41692, 31.90829 ] } },
{ "type": "Feature", "properties": { "settlement": "Settlement", "name_he": "מגדל עוז", "name_en": "Migdal Oz", "name_ar": "مجدال عوز", "date_estab": 1977.0, "hectare": 29, "object_id": 192 }, "geometry": { "type": "Point", "coordinates": [ 35.11312, 31.36363 ] } },
{ "type": "Feature", "properties": { "settlement": "Settlement", "name_he": "מגדלים", "name_en": "Migdalim", "name_ar": "مجداليم", "date_estab": 1983.0, "hectare": 25, "object_id": 193 }, "geometry": { "type": "Point", "coordinates": [ 35.19744, 31.76217 ] } },
{ "type": "Feature", "properties": { "settlement": "Settlement", "name_he": "מצפה יריחו", "name_en": "Mitzpe Yeriho", "name_ar": "مطل اريحا", "date_estab": 1978.0, "hectare": 44, "object_id": 194 }, "geometry": { "type": "Point", "coordinates": [ 35.3948, 31.81629 ] } },
{ "type": "Feature", "properties": { "settlement": "Settlement", "name_he": "מצפה שלם", "name_en": "Mizpe Shalem", "name_ar": "مطل شالم", "date_estab": 1971.0, "hectare": 9, "object_id": 195 }, "geometry": { "type": "Point", "coordinates": [ 35.40073, 31.56928 ] } },
{ "type": "Feature", "properties": { "settlement": "Settlement", "name_he": "מודיעין עילית", "name_en": "Modi'in Illit", "name_ar": "موديعين عيليت", "date_estab": 1996.0, "hectare": 234, "object_id": 196 }, "geometry": { "type": "Point", "coordinates": [ 35.04198, 31.93206 ] } },
{ "type": "Feature", "properties": { "settlement": "Settlement", "name_he": "נעלה", "name_en": "Na'ale", "name_ar": "نعليه", "date_estab": 1988.0, "hectare": 27, "object_id": 197 }, "geometry": { "type": "Point", "coordinates": [ 35.06413, 31.96305 ] } },
{ "type": "Feature", "properties": { "settlement": "Settlement", "name_he": "נעמ\"ה", "name_en": "Naama", "name_ar": "نعماة", "date_estab": 1982.0, "hectare": 13, "object_id": 198 }, "geometry": { "type": "Point", "coordinates": [ 35.4679, 31.90676 ] } },
{ "type": "Feature", "properties": { "settlement": "Settlement", "name_he": "נחליאל", "name_en": "Nahaliel", "name_ar": "ناحلئيل", "date_estab": 1984.0, "hectare": 10, "object_id": 199 }, "geometry": { "type": "Point", "coordinates": [ 35.13964, 31.97427 ] } },
{ "type": "Feature", "properties": { "settlement": "Settlement", "name_he": "נגוהות", "name_en": "Negohot", "name_ar": "نيجوهوت", "date_estab": 1999.0, "hectare": 6, "object_id": 200 }, "geometry": { "type": "Point", "coordinates": [ 34.97991, 31.49406 ] } },
{ "type": "Feature", "properties": { "settlement": "Settlement", "name_he": "נתיב הגדוד", "name_en": "Netiv Hagedud", "name_ar": "نتيف هجدود", "date_estab": 1976.0, "hectare": 41, "object_id": 201 }, "geometry": { "type": "Point", "coordinates": [ 35.44468, 31.98894 ] } },
{ "type": "Feature", "properties": { "settlement": "Settlement", "name_he": "נווה דניאל", "name_en": "Neve Daniel", "name_ar": "نفي دانئيل", "date_estab": 1982.0, "hectare": 28, "object_id": 202 }, "geometry": { "type": "Point", "coordinates": [ 35.14375, 31.67893 ] } },
{ "type": "Feature", "properties": { "settlement": "Settlement", "name_he": "חלמיש", "name_en": "Neve Halamish", "name_ar": "نفي حلميش", "date_estab": 1977.0, "hectare": 38, "object_id": 203 }, "geometry": { "type": "Point", "coordinates": [ 35.12693, 32.00677 ] } },
{ "type": "Feature", "properties": { "settlement": "Settlement", "name_he": "ניל\"י", "name_en": "Nili", "name_ar": "نيلي", "date_estab": 1981.0, "hectare": 26, "object_id": 204 }, "geometry": { "type": "Point", "coordinates": [ 35.0478, 31.96353 ] } },
{ "type": "Feature", "properties": { "settlement": "Settlement", "name_he": "נירן", "name_en": "Niran", "name_ar": "نيران", "date_estab": 1977.0, "hectare": 12, "object_id": 205 }, "geometry": { "type": "Point", "coordinates": [ 35.45603, 31.96771 ] } },
{ "type": "Feature", "properties": { "settlement": "Settlement", "name_he": "נופים", "name_en": "Nofim", "name_ar": "نوفيم", "date_estab": 1987.0, "hectare": 24, "object_id": 206 }, "geometry": { "type": "Point", "coordinates": [ 35.10137, 32.15509 ] } },
{ "type": "Feature", "properties": { "settlement": "Settlement", "name_he": "נוקדים", "name_en": "Nokdim", "name_ar": "نكوديم", "date_estab": 1982.0, "hectare": 36, "object_id": 207 }, "geometry": { "type": "Point", "coordinates": [ 35.24713, 31.64891 ] } },
{ "type": "Feature", "properties": { "settlement": "Settlement", "name_he": "עפרה", "name_en": "Ofra", "name_ar": "عوفرا", "date_estab": 1975.0, "hectare": 71, "object_id": 208 }, "geometry": { "type": "Point", "coordinates": [ 35.26307, 31.95362 ] } },
{ "type": "Feature", "properties": { "settlement": "Settlement", "name_he": "אורנית", "name_en": "Oranit", "name_ar": "اورانيت", "date_estab": 1985.0, "hectare": 100, "object_id": 209 }, "geometry": { "type": "Point", "coordinates": [ 34.99171, 32.13095 ] } },
{ "type": "Feature", "properties": { "settlement": "Settlement", "name_he": "עתניאל", "name_en": "Otniel", "name_ar": "عونتئيل", "date_estab": 1983.0, "hectare": 18, "object_id": 210 }, "geometry": { "type": "Point", "coordinates": [ 35.02953, 31.43955 ] } },
{ "type": "Feature", "properties": { "settlement": "Settlement", "name_he": "פדואל", "name_en": "Pedu'el", "name_ar": "بدوئيل", "date_estab": 1984.0, "hectare": 23, "object_id": 211 }, "geometry": { "type": "Point", "coordinates": [ 35.05178, 32.06225 ] } },
{ "type": "Feature", "properties": { "settlement": "Settlement", "name_he": "פצאל", "name_en": "Petza'el", "name_ar": "بتسائيل", "date_estab": 1975.0, "hectare": 58, "object_id": 212 }, "geometry": { "type": "Point", "coordinates": [ 35.44292, 32.04427 ] } },
{ "type": "Feature", "properties": { "settlement": "Settlement", "name_he": "פני חבר", "name_en": "Pnei Hever", "name_ar": "بني حيفير", "date_estab": 1982.0, "hectare": 11, "object_id": 213 }, "geometry": { "type": "Point", "coordinates": [ 35.16547, 31.48659 ] } },
{ "type": "Feature", "properties": { "settlement": "Settlement", "name_he": "פסגות", "name_en": "Psagot", "name_ar": "بساجوت", "date_estab": 1981.0, "hectare": 24, "object_id": 214 }, "geometry": { "type": "Point", "coordinates": [ 35.2247, 31.89889 ] } },
{ "type": "Feature", "properties": { "settlement": "Settlement", "name_he": "קליה", "name_en": "Qalya", "name_ar": "قاليا", "date_estab": 1968.0, "hectare": 23, "object_id": 215 }, "geometry": { "type": "Point", "coordinates": [ 35.46611, 31.75064 ] } },
{ "type": "Feature", "properties": { "settlement": "Settlement", "name_he": "קדר", "name_en": "Qedar", "name_ar": "كيدار", "date_estab": 1985.0, "hectare": 23, "object_id": 216 }, "geometry": { "type": "Point", "coordinates": [ 35.31054, 31.75358 ] } },
{ "type": "Feature", "properties": { "settlement": "Settlement", "name_he": "רחלים", "name_en": "Rechelim", "name_ar": "رحاليم", "date_estab": 1991.0, "hectare": 8, "object_id": 217 }, "geometry": { "type": "Point", "coordinates": [ 35.25663, 32.10223 ] } },
{ "type": "Feature", "properties": { "settlement": "Settlement", "name_he": "ריחן", "name_en": "Rehan", "name_ar": "رحان", "date_estab": 1977.0, "hectare": 11, "object_id": 218 }, "geometry": { "type": "Point", "coordinates": [ 35.1369, 32.46921 ] } },
{ "type": "Feature", "properties": { "settlement": "Settlement", "name_he": "רבבה", "name_en": "Revava", "name_ar": "رفافا", "date_estab": 1991.0, "hectare": 26, "object_id": 219 }, "geometry": { "type": "Point", "coordinates": [ 35.12871, 32.11873 ] } },
{ "type": "Feature", "properties": { "settlement": "Settlement", "name_he": "רימונים", "name_en": "Rimmonim", "name_ar": "ريمونيم", "date_estab": 1977.0, "hectare": 20, "object_id": 220 }, "geometry": { "type": "Point", "coordinates": [ 35.34091, 31.93386 ] } },
{ "type": "Feature", "properties": { "settlement": "Settlement", "name_he": "רועי", "name_en": "Ro'i", "name_ar": "روعي", "date_estab": 1976.0, "hectare": 14, "object_id": 221 }, "geometry": { "type": "Point", "coordinates": [ 35.48902, 32.24756 ] } },
{ "type": "Feature", "properties": { "settlement": "Settlement", "name_he": "ראש צורים", "name_en": "Rosh Tzurim", "name_ar": "روش تسوريم", "date_estab": 1969.0, "hectare": 26, "object_id": 222 }, "geometry": { "type": "Point", "coordinates": [ 35.12426, 31.66833 ] } },
{ "type": "Feature", "properties": { "settlement": "Settlement", "name_he": "רותם", "name_en": "Rotem", "name_ar": "روتم", "date_estab": 1984.0, "hectare": 3, "object_id": 223 }, "geometry": { "type": "Point", "coordinates": [ 35.51877, 32.33649 ] } },
{ "type": "Feature", "properties": { "settlement": "Settlement", "name_he": "סלעית", "name_en": "Sal'it", "name_ar": "سلعيت", "date_estab": 1977.0, "hectare": 36, "object_id": 224 }, "geometry": { "type": "Point", "coordinates": [ 35.10298, 32.25634 ] } },
{ "type": "Feature", "properties": { "settlement": "Settlement", "name_he": "סנסנה", "name_en": "Sansana", "name_ar": "سنسناه", "date_estab": 1999.0, "hectare": 10, "object_id": 225 }, "geometry": { "type": "Point", "coordinates": [ 34.90349, 31.36336 ] } },
{ "type": "Feature", "properties": { "settlement": "Settlement", "name_he": "שערי תקווה", "name_en": "Sha'arei Tikva", "name_ar": "شاعر تيكفا", "date_estab": 1983.0, "hectare": 88, "object_id": 226 }, "geometry": { "type": "Point", "coordinates": [ 35.02612, 32.12318 ] } },
{ "type": "Feature", "properties": { "settlement": "Settlement", "name_he": "שדמות מחולה", "name_en": "Shademot Mehola", "name_ar": "شدموت محولة", "date_estab": 1979.0, "hectare": 36, "object_id": 227 }, "geometry": { "type": "Point", "coordinates": [ 35.53468, 32.34649 ] } },
{ "type": "Feature", "properties": { "settlement": "Settlement", "name_he": "שקד", "name_en": "Shaqed", "name_ar": "شكيد", "date_estab": 1981.0, "hectare": 21, "object_id": 228 }, "geometry": { "type": "Point", "coordinates": [ 35.16869, 32.47367 ] } },
{ "type": "Feature", "properties": { "settlement": "Settlement", "name_he": "שבי שומרון", "name_en": "Shavei Shomron", "name_ar": "شفي شومرون", "date_estab": 1977.0, "hectare": 34, "object_id": 229 }, "geometry": { "type": "Point", "coordinates": [ 35.18508, 32.26331 ] } },
{ "type": "Feature", "properties": { "settlement": "Settlement", "name_he": "שילה", "name_en": "Shilo", "name_ar": "شيلو", "date_estab": 1979.0, "hectare": 57, "object_id": 230 }, "geometry": { "type": "Point", "coordinates": [ 35.3006, 32.05294 ] } },
{ "type": "Feature", "properties": { "settlement": "Settlement", "name_he": "שמעה", "name_en": "Shim'a", "name_ar": "شيمعا", "date_estab": 1985.0, "hectare": 12, "object_id": 231 }, "geometry": { "type": "Point", "coordinates": [ 35.01322, 31.38817 ] } },
{ "type": "Feature", "properties": { "settlement": "Settlement", "name_he": "סוסיא", "name_en": "Susiya", "name_ar": "سوسيا", "date_estab": 1983.0, "hectare": 28, "object_id": 232 }, "geometry": { "type": "Point", "coordinates": [ 35.11323, 31.39297 ] } },
{ "type": "Feature", "properties": { "settlement": "Settlement", "name_he": "טלמון", "name_en": "Talmon", "name_ar": "تلمون", "date_estab": 1989.0, "hectare": 51, "object_id": 233 }, "geometry": { "type": "Point", "coordinates": [ 35.13249, 31.94573 ] } },
{ "type": "Feature", "properties": { "settlement": "Settlement", "name_he": "תקוע", "name_en": "Tekoa", "name_ar": "تقوع", "date_estab": 1977.0, "hectare": 50, "object_id": 234 }, "geometry": { "type": "Point", "coordinates": [ 35.23069, 31.64935 ] } },
{ "type": "Feature", "properties": { "settlement": "Settlement", "name_he": "תלם", "name_en": "Telem", "name_ar": "تيليم", "date_estab": 1982.0, "hectare": 10, "object_id": 235 }, "geometry": { "type": "Point", "coordinates": [ 35.0314, 31.56402 ] } },
{ "type": "Feature", "properties": { "settlement": "Settlement", "name_he": "טנא", "name_en": "Tene", "name_ar": "طينيه", "date_estab": 1983.0, "hectare": 16, "object_id": 236 }, "geometry": { "type": "Point", "coordinates": [ 34.95716, 31.37546 ] } },
{ "type": "Feature", "properties": { "settlement": "Settlement", "name_he": "תומר", "name_en": "Tomer", "name_ar": "تومر", "date_estab": 1978.0, "hectare": 29, "object_id": 237 }, "geometry": { "type": "Point", "coordinates": [ 35.43905, 32.01911 ] } },
{ "type": "Feature", "properties": { "settlement": "Settlement", "name_he": "ורד יריחו", "name_en": "Vered Yeriho", "name_ar": "وردة اريحا", "date_estab": 1980.0, "hectare": 13, "object_id": 238 }, "geometry": { "type": "Point", "coordinates": [ 35.43206, 31.82646 ] } },
{ "type": "Feature", "properties": { "settlement": "Settlement", "name_he": "יפית", "name_en": "Yafit", "name_ar": "يافيت", "date_estab": 1980.0, "hectare": 31, "object_id": 239 }, "geometry": { "type": "Point", "coordinates": [ 35.47355, 32.06229 ] } },
{ "type": "Feature", "properties": { "settlement": "Settlement", "name_he": "יקיר", "name_en": "Yaqir", "name_ar": "ياكير", "date_estab": 1981.0, "hectare": 31, "object_id": 240 }, "geometry": { "type": "Point", "coordinates": [ 35.11367, 32.14969 ] } },
{ "type": "Feature", "properties": { "settlement": "Settlement", "name_he": "ייט\"ב", "name_en": "Yitav", "name_ar": "ييتاف", "date_estab": 1970.0, "hectare": 11, "object_id": 241 }, "geometry": { "type": "Point", "coordinates": [ 35.42402, 31.94718 ] } },
{ "type": "Feature", "properties": { "settlement": "Settlement", "name_he": "יצהר", "name_en": "Yizhar", "name_ar": "يزهار", "date_estab": 1983.0, "hectare": 30, "object_id": 242 }, "geometry": { "type": "Point", "coordinates": [ 35.23887, 32.16639 ] } },
{ "type": "Feature", "properties": { "settlement": "Settlement", "name_he": "צופין (צופים)", "name_en": "Zufin (Zufim)", "name_ar": "تسوفين (تسوفيم)", "date_estab": 1989.0, "hectare": 22, "object_id": 243 }, "geometry": { "type": "Point", "coordinates": [ 35.00913, 32.19859 ] } }
]
}
