{"type":"FeatureCollection","crs":{"type":"name","properties":{"name":"urn:ogc:def:crs:OGC:1.3:CRS84"}},"features":[{"type":"Feature","id":1,"geometry":{"type":"Point","coordinates":[34.257437301000039,31.248058678000064]},"properties":{"OBJECTID":1,"Name":"Rafah Crossing Point","Type":"Primary Crossing Point","x":619735.19519999996,"y":3457775.2305999999}},{"type":"Feature","id":2,"geometry":{"type":"Point","coordinates":[34.32680973600003,31.257396011000026]},"properties":{"OBJECTID":2,"Name":"Sufa Crossing Point","Type":"Secondary Crossing Point","x":626329.04799999995,"y":3458887.5090000001}},{"type":"Feature","id":3,"geometry":{"type":"Point","coordinates":[34.543316792000041,31.558304510000028]},"properties":{"OBJECTID":3,"Name":"Erez Crossing Point","Type":"Primary Crossing Point","x":646477.07830000005,"y":3492511.4079}},{"type":"Feature","id":4,"geometry":{"type":"Point","coordinates":[34.483057386000041,31.478340784000068]},"properties":{"OBJECTID":4,"Name":"Karni Crossing Point","Type":"Primary Crossing Point","x":640877.20129999996,"y":3483568.2675000001}},{"type":"Feature","id":5,"geometry":{"type":"Point","coordinates":[34.491636858000049,31.485022258000072]},"properties":{"OBJECTID":5,"Name":"Nahal Oz","Type":"Secondary Crossing Point","x":641682.18669999996,"y":3484319.9638999999}},{"type":"Feature","id":6,"geometry":{"type":"Point","coordinates":[34.270790877000024,31.223983845000078]},"properties":{"OBJECTID":6,"Name":"Kerem Shalom Crossing Point","Type":"Secondary Crossing Point","x":621037.53740000003,"y":3455121.2873999998}}]}